{
	"version": 3,
	"status": "ok",
	"response": {
		"data": [{
			"type": "Place",
			"ref": "1234",
			"pricesFrom": "82.00",
			"url": "/places/123/united-kingdom/chester/restaurants/1/chester-zoo",
			"factual_Id": "0a6f1806-12ff-4502-a9ef-b7a7bff38a5e",
			"name": "Fish & Chip Restaurants",
			"address": "21-23 Lower Bridge St",
			"locality": "Chester",
			"region": "Cheshire",
			"postcode": "CH1 1RS",
			"country": "gb",
			"neighborhood": ["Chester", "Handbridge"],
			"tel": "01244 350619",
			"coordinates": {
				"lon": -2.890375,
				"lat": 53.187691
			},
			"admin_Region": "England",
			"post_Town": "Chester",
			"category_Labels": [
				["Social", "Food and Dining", "Restaurants", "Seafood"],
				["Social", "Food and Dining", "Cafes, Coffee and Tea Houses"]
			],
			"category_Ids": [364, 342],
			"customerRating": 0,
			"mainImage": "",
			"reviewCount": 2,
			"tags": {
				"tag": [
					"Restaurants",
					"Seafood"
				]
			},
			"images": []
		}, {
			"type": "Place",
			"ref": "1234",
			"pricesFrom": "82.00",
			"url": "/places/123/united-kingdom/chester/restaurants/1/chester-zoo",
			"factual_Id": "61cedb4c-06ab-4e73-a10e-17fe96c63319",
			"name": "Ego Restaurants",
			"address": "14-16 Grosvenor St",
			"locality": "Chester",
			"region": "Cheshire",
			"postcode": "CH1 2DD",
			"country": "gb",
			"neighborhood": ["Chester", "Handbridge"],
			"tel": "01244 346512",
			"fax": "01244 340577",
			"website": "http://www.egorestaurants.com",
			"coordinates": {
				"lon": -2.891885,
				"lat": 53.187894
			},
			"admin_Region": "England",
			"post_Town": "Chester",
			"category_Labels": [
				["Social", "Food and Dining", "Restaurants", "Middle Eastern"]
			],
			"category_Ids": [362],
			"customerRating": 0,
			"mainImage": "",
			"reviewCount": 2,
			"tags": {
				"tag": [
					"Restaurants",
					"Middle Eastern"
				]
			},
			"images": []
		}, {
			"type": "Place",
			"ref": "1234",
			"pricesFrom": "82.00",
			"factual_Id": "3710a07c-19c3-4efb-b537-00a2c255de7e",
			"name": "Northgate Restaurants",
			"address": "Old Seals Way",
			"locality": "Chester",
			"region": "Cheshire",
			"postcode": "CH1 4RY",
			"country": "gb",
			"tel": "0845 677 9337",
			"coordinates": {
				"lon": -2.909963,
				"lat": 53.197158
			},
			"admin_Region": "England",
			"post_Town": "Chester",
			"category_Labels": [
				["Social", "Food and Dining", "Restaurants"]
			],
			"category_Ids": [347],
			"customerRating": 0,
			"mainImage": "",
			"reviewCount": 2,
			"tags": {
				"tag": [
					"Restaurants"
				]
			},
			"images": []
		}, {
			"type": "Place",
			"ref": "1234",
			"pricesFrom": "82.00",
			"factual_Id": "d4327b0f-b0f0-49bc-905c-08957399e576",
			"name": "ABode Chester - Home to Michael Caines Restaurants",
			"address": "Piazza HQ, Grosvenor Rd",
			"locality": "Chester",
			"region": "Cheshire",
			"postcode": "CH1 2DJ",
			"country": "gb",
			"coordinates": {
				"lon": -2.894429,
				"lat": 53.186506
			},
			"admin_Region": "England",
			"post_Town": "Chester",
			"scoreOutOf6": 0
		}, {
			"type": "Place",
			"factual_Id": "1d1a06db-7e7f-47a1-bfbb-ff35467975df",
			"name": "City Centre Restaurants",
			"address": "Greyhound Park",
			"address_Extended": "Unit 23",
			"locality": "Chester",
			"region": "Cheshire",
			"postcode": "CH1 4XX",
			"country": "gb",
			"neighborhood": ["Blacon"],
			"coordinates": {
				"lon": -2.90345,
				"lat": 53.1958
			},
			"admin_Region": "England",
			"post_Town": "Chester",
			"category_Labels": [
				["Social", "Food and Dining", "Restaurants", "Italian"]
			],
			"category_Ids": [358],
			"customerRating": 0,
			"mainImage": "",
			"reviewCount": 2,
			"tags": {
				"tag": [
					"Restaurants",
					"Italian"
				]
			},
			"images": []
		}, {
			"type": "Place",
			"ref": "1234",
			"pricesFrom": "82.00",
			"factual_Id": "e4fa683d-b5b2-4241-bad2-87a7014efa6c",
			"name": "La Brasserie",
			"address": "56-58 Eastgate St",
			"locality": "Chester",
			"region": "Cheshire",
			"postcode": "CH1 1LT",
			"country": "gb",
			"neighborhood": ["Chester", "Handbridge"],
			"tel": "01244 324024",
			"website": "http://www.chestergrosvenor.com",
			"coordinates": {
				"lon": -2.889134,
				"lat": 53.190675
			},
			"hours_Display": "Mon-Fri 7:00 AM-10:00 PM; Sat 7:30 AM-10:30 PM; Sun 7:30 AM-10:00 PM",
			"hours": {
				"sunday": [
					["7:30", "22:00"]
				],
				"saturday": [
					["7:30", "22:30"]
				],
				"tuesday": [
					["7:00", "22:00"]
				],
				"friday": [
					["7:00", "22:00"]
				],
				"thursday": [
					["7:00", "22:00"]
				],
				"wednesday": [
					["7:00", "22:00"]
				],
				"monday": [
					["7:00", "22:00"]
				]
			},
			"admin_Region": "England",
			"post_Town": "Chester",
			"category_Labels": [
				["Social", "Food and Dining", "Restaurants"]
			],
			"category_Ids": [347],
			"email": "restaurants@chestergrosvenor.com",
			"customerRating": 0,
			"mainImage": "",
			"reviewCount": 2,
			"tags": {
				"tag": [
					"Restaurants",
					"Fine Dining"
				]
			},
			"images": []
		}, {
			"type": "Place",
			"ref": "1234",
			"pricesFrom": "82.00",
			"factual_Id": "987b31e9-6900-4196-8336-4cb21f867feb",
			"name": "The Arkle Bar and Lounge",
			"address": "The Chester Grosvenor",
			"locality": "Chester",
			"region": "Cheshire",
			"postcode": "CH1 1LT",
			"country": "gb",
			"tel": "01244 895618",
			"website": "http://www.chestergrosvenor.co.uk",
			"coordinates": {
				"lon": -2.888944,
				"lat": 53.190633
			},
			"admin_Region": "England",
			"post_Town": "Chester",
			"category_Labels": [
				["Social", "Food and Dining", "Restaurants"],
				["Social", "Bars"]
			],
			"category_Ids": [347, 312],
			"email": "restaurants@chestergrosvenor.com",
			"customerRating": 0,
			"mainImage": "",
			"reviewCount": 2,
			"tags": {
				"tag": [
					"Restaurants",
					"Bar"
				]
			},
			"images": []
		}, {
			"type": "Place",
			"ref": "1234",
			"pricesFrom": "82.00",
			"factual_Id": "2cd4db90-5b4c-4287-90af-ece66891a638",
			"name": "Piccolino - Chester",
			"address": "33 Pepper Row",
			"locality": "Chester",
			"region": "Cheshire",
			"postcode": "CH1 1EA",
			"country": "gb",
			"neighborhood": ["Chester"],
			"tel": "01244 312123",
			"website": "http://www.individualrestaurants.com/piccolino/chester/",
			"coordinates": {
				"lon": -2.889243,
				"lat": 53.188899
			},
			"hours_Display": "Mon-Sat 12:00 PM-11:00 PM; Sun 12:00 PM-10:30 PM",
			"hours": {
				"sunday": [
					["12:00", "22:30"]
				],
				"saturday": [
					["12:00", "23:00"]
				],
				"tuesday": [
					["12:00", "23:00"]
				],
				"friday": [
					["12:00", "23:00"]
				],
				"thursday": [
					["12:00", "23:00"]
				],
				"wednesday": [
					["12:00", "23:00"]
				],
				"monday": [
					["12:00", "23:00"]
				]
			},
			"admin_Region": "England",
			"post_Town": "Chester",
			"category_Labels": [
				["Social", "Food and Dining", "Restaurants", "Italian"]
			],
			"category_Ids": [358],
			"email": "piccolino.chester@piccolinorestaurants.co.uk",
			"customerRating": 0,
			"mainImage": "",
			"reviewCount": 2,
			"tags": {
				"tag": [
					"Restaurants",
					"Italian"
				]
			},
			"images": []
		}, {
			"type": "Place",
			"ref": "1234",
			"pricesFrom": "82.00",
			"factual_Id": "0fbe9b28-98ae-4370-9b4b-0f0f8d9a4474",
			"name": "The Old Trooper",
			"address": "Whitchurch Rd",
			"locality": "Chester",
			"region": "Cheshire",
			"postcode": "CH3 6AE",
			"country": "gb",
			"neighborhood": ["Chester", "Christleton"],
			"tel": "01244 335784",
			"fax": "01244 336425",
			"website": "http://www.harvester.co.uk",
			"coordinates": {
				"lon": -2.844639,
				"lat": 53.844639
			},
			"hours_Display": "Mon-Sat 11:30 AM-10:00 PM; Sun 11:00 AM-10:00 PM",
			"hours": {
				"sunday": [
					["11:00", "22:00"]
				],
				"saturday": [
					["11:30", "22:00"]
				],
				"tuesday": [
					["11:30", "22:00"]
				],
				"friday": [
					["11:30", "22:00"]
				],
				"thursday": [
					["11:30", "22:00"]
				],
				"wednesday": [
					["11:30", "22:00"]
				],
				"monday": [
					["11:30", "22:00"]
				]
			},
			"admin_Region": "England",
			"post_Town": "Chester",
			"category_Labels": [
				["Social", "Food and Dining", "Restaurants"]
			],
			"category_Ids": [347],
			"email": "contact@support.harvester.co.uk",
			"customerRating": 0,
			"mainImage": "",
			"reviewCount": 2,
			"tags": {
				"tag": [
					"Restaurants"
				]
			},
			"images": []
		}, {
			"type": "Place",
			"ref": "1234",
			"pricesFrom": "82.00",
			"factual_Id": "c181298b-f7cf-43db-81b3-7fc1a2bd466f",
			"name": "Est Est Est",
			"address": "Chester, Newgate Ho, Newgate St",
			"locality": "Chester",
			"region": "Cheshire",
			"postcode": "CH1 1DE",
			"country": "gb",
			"neighborhood": ["Handbridge"],
			"tel": "01244 400507",
			"fax": "01244 320904",
			"coordinates": {
				"lon": -2.888775,
				"lat": 53.1894
			},
			"admin_Region": "England",
			"post_Town": "Chester",
			"category_Labels": [
				["Social", "Food and Dining", "Restaurants", "Italian"]
			],
			"category_Ids": [358],
			"customerRating": 0,
			"mainImage": "",
			"reviewCount": 2,
			"tags": {
				"tag": [
					"Restaurants",
					"Italian"
				]
			},
			"images": []
		}, {
			"type": "Place",
			"ref": "1234",
			"pricesFrom": "82.00",
			"factual_Id": "39dab2b1-dd73-4f89-b911-1cc800cb5348",
			"name": "Shere Khan",
			"address": "33 Pepper St",
			"locality": "Chester",
			"region": "Cheshire",
			"postcode": "CH1 1DF",
			"country": "gb",
			"neighborhood": ["Handbridge"],
			"tel": "01244 342349",
			"coordinates": {
				"lon": -2.88943,
				"lat": 53.188753
			},
			"admin_Region": "England",
			"post_Town": "Chester",
			"category_Labels": [
				["Social", "Food and Dining", "Restaurants", "American"],
				["Social", "Food and Dining", "Restaurants", "Indian"]
			],
			"category_Ids": [348, 357],
			"customerRating": 0,
			"mainImage": "",
			"reviewCount": 2,
			"tags": {
				"tag": [
					"Restaurants",
					"Indian"
				]
			},
			"images": []
		}, {
			"type": "Place",
			"ref": "1234",
			"pricesFrom": "82.00",
			"factual_Id": "b5671810-ad80-4cb1-839b-0332a4044de1",
			"name": "The Blackhouse Grill",
			"address": "19 Newgate St",
			"locality": "Chester",
			"region": "Cheshire",
			"postcode": "CH1 1DE",
			"country": "gb",
			"neighborhood": ["Chester", "Handbridge"],
			"tel": "01244 400507",
			"fax": "01244 320904",
			"website": "http://www.blackhouse.uk.com",
			"coordinates": {
				"lon": -2.888645,
				"lat": 53.189253
			},
			"hours_Display": "Open Daily 12:00 PM-11:30 PM",
			"hours": {
				"sunday": [
					["12:00", "23:30"]
				],
				"saturday": [
					["12:00", "23:30"]
				],
				"tuesday": [
					["12:00", "23:30"]
				],
				"friday": [
					["12:00", "23:30"]
				],
				"thursday": [
					["12:00", "23:30"]
				],
				"wednesday": [
					["12:00", "23:30"]
				],
				"monday": [
					["12:00", "23:30"]
				]
			},
			"admin_Region": "England",
			"post_Town": "Chester",
			"category_Labels": [
				["Social", "Food and Dining", "Restaurants", "Italian"],
				["Social", "Food and Dining", "Restaurants", "Steakhouses"],
				["Social", "Food and Dining", "Restaurants", "Seafood"]
			],
			"category_Ids": [358, 365, 364],
			"email": "chesterpa@blackhouse.uk.com",
			"customerRating": 0,
			"mainImage": "",
			"reviewCount": 2,
			"tags": {
				"tag": [
					"Restaurants",
					"Steakhouse"
				]
			},
			"images": []
		}, {
			"type": "Place",
			"ref": "1234",
			"pricesFrom": "82.00",
			"factual_Id": "a6d21b08-76af-4fc0-820f-bc822362f921",
			"name": "Sea Breeze Fish Bars",
			"address": "40 Faulkner St",
			"locality": "Chester",
			"region": "Cheshire",
			"postcode": "CH2 3BD",
			"country": "gb",
			"neighborhood": ["Chester", "Hoole"],
			"tel": "01244 319765",
			"fax": "020 8807 3007",
			"website": "http://www.chestertourist.com/faulknerstreet.htm",
			"coordinates": {
				"lon": -2.876356,
				"lat": 53.199152
			},
			"admin_Region": "England",
			"post_Town": "Chester",
			"category_Labels": [
				["Social", "Food and Dining", "Restaurants", "Chinese"],
				["Social", "Food and Dining", "Restaurants", "Fast Food"],
				["Social", "Food and Dining", "Restaurants", "Seafood"]
			],
			"category_Ids": [352, 355, 364],
			"customerRating": 0,
			"mainImage": "",
			"reviewCount": 2,
			"tags": {
				"tag": [
					"Restaurants",
					"Chinese"
				]
			},
			"images": []
		}, {
			"type": "Place",
			"ref": "1234",
			"pricesFrom": "82.00",
			"factual_Id": "a545e53f-8a36-4133-98c4-929875424d41",
			"name": "Pacino's Pizza",
			"address": "62 Brook St",
			"locality": "Chester",
			"region": "Cheshire",
			"postcode": "CH1 3DN",
			"country": "gb",
			"neighborhood": ["Chester", "Handbridge", "Hoole"],
			"tel": "01244 351100",
			"fax": "0121 382 8384",
			"website": "http://www.pacinospizza.com",
			"coordinates": {
				"lon": -2.885472,
				"lat": 53.195489
			},
			"admin_Region": "England",
			"post_Town": "Chester",
			"category_Labels": [
				["Social", "Food and Dining", "Restaurants", "Pizza"],
				["Social", "Food and Dining", "Restaurants", "Fast Food"],
				["Social", "Food and Dining", "Restaurants", "Italian"]
			],
			"category_Ids": [363, 355, 358],
			"customerRating": 0,
			"mainImage": "",
			"reviewCount": 2,
			"tags": {
				"tag": [
					"Restaurants",
					"Italian"
				]
			},
			"images": []
		}, {
			"type": "Place",
			"ref": "1234",
			"pricesFrom": "82.00",
			"factual_Id": "63b11cd5-00a7-43db-900b-f0a592220185",
			"name": "Sea Breeze Fish Bar",
			"address": "136 Christleton Rd",
			"locality": "Chester",
			"region": "Cheshire",
			"postcode": "CH3 5TD",
			"country": "gb",
			"neighborhood": ["Chester", "Hoole"],
			"tel": "01244 347132",
			"coordinates": {
				"lon": -2.86458,
				"lat": 53.189697
			},
			"admin_Region": "England",
			"post_Town": "Chester",
			"category_Labels": [
				["Social", "Food and Dining", "Restaurants", "Fast Food"],
				["Social", "Food and Dining", "Restaurants", "Chinese"],
				["Social", "Food and Dining", "Restaurants", "Seafood"]
			],
			"category_Ids": [355, 352, 364],
			"customerRating": 0,
			"mainImage": "",
			"reviewCount": 2,
			"tags": {
				"tag": [
					"Restaurants",
					"Chinese"
				]
			},
			"images": []
		}, {
			"type": "Place",
			"ref": "1234",
			"pricesFrom": "82.00",
			"factual_Id": "98748720-05b3-42f2-bffb-777a57fb88f9",
			"name": "Slow Boat",
			"address": "57 Frodsham St",
			"locality": "Chester",
			"region": "Cheshire",
			"postcode": "CH1 3JJ",
			"country": "gb",
			"neighborhood": ["Chester", "Handbridge"],
			"tel": "01244 317873",
			"fax": "01244 400692",
			"website": "http://www.theslowboat.com",
			"coordinates": {
				"lon": -2.888671,
				"lat": 53.193163
			},
			"admin_Region": "England",
			"post_Town": "Chester",
			"category_Labels": [
				["Social", "Food and Dining", "Restaurants", "Chinese"],
				["Social", "Food and Dining", "Restaurants", "Thai"]
			],
			"category_Ids": [352, 367],
			"customerRating": 0,
			"mainImage": "",
			"reviewCount": 2,
			"tags": {
				"tag": [
					"Restaurants",
					"Thai"
				]
			},
			"images": []
		}, {
			"type": "Place",
			"ref": "1234",
			"pricesFrom": "82.00",
			"factual_Id": "c63a4a04-a10e-48d5-8e27-9b2cdbce6164",
			"name": "Hickory's Smokehouse",
			"address": "The Groves",
			"locality": "Chester",
			"region": "Cheshire",
			"postcode": "CH1 1SD",
			"country": "gb",
			"neighborhood": ["Chester", "Handbridge"],
			"tel": "01244 404000",
			"website": "http://www.hickorys.co.uk",
			"coordinates": {
				"lon": -2.886748,
				"lat": 53.187761
			},
			"hours_Display": "Open Daily 10:00 AM-11:00 PM",
			"hours": {
				"sunday": [
					["10:00", "23:00"]
				],
				"saturday": [
					["10:00", "23:00"]
				],
				"tuesday": [
					["10:00", "23:00"]
				],
				"friday": [
					["10:00", "23:00"]
				],
				"thursday": [
					["10:00", "23:00"]
				],
				"wednesday": [
					["10:00", "23:00"]
				],
				"monday": [
					["10:00", "23:00"]
				]
			},
			"admin_Region": "England",
			"post_Town": "Chester",
			"category_Labels": [
				["Social", "Food and Dining", "Restaurants", "American"],
				["Social", "Food and Dining", "Restaurants", "Barbecue"]
			],
			"category_Ids": [348, 349],
			"email": "hello@hickorys.co.uk",
			"customerRating": 0,
			"mainImage": "",
			"reviewCount": 2,
			"tags": {
				"tag": [
					"Restaurants",
					"American"
				]
			},
			"images": []
		}, {
			"type": "Place",
			"ref": "1234",
			"pricesFrom": "82.00",
			"factual_Id": "c324be38-f820-4745-9a47-2a9628a10627",
			"name": "Pizza Hut",
			"address": "Chester Retail Park",
			"locality": "Chester",
			"region": "Cheshire",
			"country": "gb",
			"tel": "01244 370273",
			"website": "http://www.pizzahut.co.uk/",
			"coordinates": {
				"lon": -2.910726,
				"lat": 53.19714
			},
			"hours_Display": "Mon-Fri 9:00 AM-8:00 PM; Sat 9:00 AM-7:00 PM; Sun 11:00 AM-5:00 PM",
			"hours": {
				"sunday": [
					["11:00", "17:00"]
				],
				"saturday": [
					["9:00", "19:00"]
				],
				"tuesday": [
					["9:00", "20:00"]
				],
				"friday": [
					["9:00", "20:00"]
				],
				"thursday": [
					["9:00", "20:00"]
				],
				"wednesday": [
					["9:00", "20:00"]
				],
				"monday": [
					["9:00", "20:00"]
				]
			},
			"admin_Region": "England",
			"post_Town": "Chester",
			"category_Labels": [
				["Social", "Food and Dining", "Restaurants", "Fast Food"],
				["Social", "Food and Dining", "Restaurants", "Pizza"]
			],
			"category_Ids": [355, 363],
			"customerRating": 0,
			"mainImage": "",
			"reviewCount": 2,
			"tags": {
				"tag": [
					"Restaurants",
					"Pizza",
					"Fast Food"
				]
			},
			"images": []
		}, {
			"type": "Place",
			"factual_Id": "13a21865-0987-4f50-a140-ac1375521dfe",
			"name": "Siam Thai & Teppan-Yaki Restaurant",
			"address": "32 City Rd",
			"locality": "Chester",
			"region": "Cheshire",
			"postcode": "CH1 3AE",
			"country": "gb",
			"neighborhood": ["Chester", "Handbridge", "Hoole"],
			"tel": "01244 403222",
			"website": "http://www.siam-teppanyaki.co.uk",
			"coordinates": {
				"lon": -2.881583,
				"lat": 53.193653
			},
			"hours_Display": "Mon-Fri 12:00 PM-11:00 PM; Sat 12:00 PM-11:30 PM; Sun 12:00 PM-10:30 PM",
			"hours": {
				"sunday": [
					["12:00", "22:30"]
				],
				"saturday": [
					["12:00", "23:30"]
				],
				"tuesday": [
					["12:00", "23:00"]
				],
				"friday": [
					["12:00", "23:00"]
				],
				"thursday": [
					["12:00", "23:00"]
				],
				"wednesday": [
					["12:00", "23:00"]
				],
				"monday": [
					["12:00", "23:00"]
				]
			},
			"admin_Region": "England",
			"post_Town": "Chester",
			"category_Labels": [
				["Social", "Food and Dining", "Restaurants", "Thai"],
				["Social", "Food and Dining", "Restaurants", "Japanese"]
			],
			"category_Ids": [367, 359],
			"email": "info@siam-teppanyaki.co.uk",
			"customerRating": 0,
			"mainImage": "",
			"reviewCount": 2,
			"tags": {
				"tag": [
					"Thai",
					"Japaese"
				]
			},
			"images": []
		}],
		"count": 20
	}
}